{
  "cables": [
    {
      "id": "marea",
      "name": "MAREA",
      "type": "submarine",
      "capacity": "160 Tbps",
      "length": "6600 km",
      "owners": ["Facebook", "Microsoft", "Telxius"],
      "year": 2018,
      "color": "#1e90ff",
      "route": [
        {"lat": 40.7128, "lng": -74.0060, "name": "Нью-Йорк, США"},
        {"lat": 36.1408, "lng": -5.3536, "name": "Вифемия-Бич, Вирджиния"},
        {"lat": 43.4668, "lng": -1.5550, "name": "Бильбао, Испания"},
        {"lat": 48.8566, "lng": 2.3522, "name": "Париж, Франция"}
      ],
      "description": "Самый высокоемкий трансатлантический кабель, соединяющий США и Европу"
    },
    {
      "id": "sea_me_we_5",
      "name": "SEA-ME-WE 5",
      "type": "submarine",
      "capacity": "24 Tbps",
      "length": "20000 km",
      "owners": ["Консорциум 17 компаний"],
      "year": 2016,
      "color": "#32cd32",
      "route": [
        {"lat": 1.3521, "lng": 103.8198, "name": "Сингапур"},
        {"lat": 6.9271, "lng": 79.8612, "name": "Коломбо, Шри-Ланка"},
        {"lat": 19.0760, "lng": 72.8777, "name": "Мумбаи, Индия"},
        {"lat": 25.2048, "lng": 55.2708, "name": "Дубай, ОАЭ"},
        {"lat": 21.3891, "lng": 39.8579, "name": "Джидда, Саудовская Аравия"},
        {"lat": 30.0444, "lng": 31.2357, "name": "Каир, Египет"},
        {"lat": 43.4668, "lng": -1.5550, "name": "Марсель, Франция"}
      ],
      "description": "Юго-Восточная Азия - Ближний Восток - Западная Европа, критический маршрут"
    },
    {
      "id": "faster",
      "name": "FASTER",
      "type": "submarine",
      "capacity": "60 Tbps",
      "length": "11629 km",
      "owners": ["Google", "China Telecom", "Singtel"],
      "year": 2016,
      "color": "#ff4500",
      "route": [
        {"lat": 35.6895, "lng": 139.6917, "name": "Токио, Япония"},
        {"lat": 36.7783, "lng": -119.4179, "name": "Калифорния, США"},
        {"lat": 25.0330, "lng": 121.5654, "name": "Тайвань"},
        {"lat": 1.3521, "lng": 103.8198, "name": "Сингапур"}
      ],
      "description": "Транстихоокеанский кабель, соединяющий Азию и Северную Америку"
    },
    {
      "id": "aeconnect_1",
      "name": "AEConnect-1",
      "type": "submarine",
      "capacity": "20 Tbps",
      "length": "5500 km",
      "owners": ["Aqua Comms"],
      "year": 2016,
      "color": "#9370db",
      "route": [
        {"lat": 40.7128, "lng": -74.0060, "name": "Нью-Йорк, США"},
        {"lat": 53.3498, "lng": -6.2603, "name": "Дублин, Ирландия"},
        {"lat": 50.7184, "lng": -1.8836, "name": "Саутгемптон, Великобритания"}
      ],
      "description": "Кабель соединяющий США с Ирландией и Великобританией"
    },
    {
      "id": "southern_cross",
      "name": "Southern Cross",
      "type": "submarine",
      "capacity": "12 Tbps",
      "length": "28500 km",
      "owners": ["Southern Cross Cable Network"],
      "year": 2000,
      "color": "#ff69b4",
      "route": [
        {"lat": -33.8688, "lng": 151.2093, "name": "Сидней, Австралия"},
        {"lat": -36.8485, "lng": 174.7633, "name": "Окленд, Новая Зеландия"},
        {"lat": 21.3070, "lng": -157.8584, "name": "Гонолулу, Гавайи"},
        {"lat": 34.0522, "lng": -118.2437, "name": "Лос-Анджелес, США"}
      ],
      "description": "Соединяет Австралию и Новую Зеландию с Северной Америкой"
    }
  ]
}